%time,field.header.seq,field.header.stamp,field.header.frame_id,field.name0,field.name1,field.name2,field.name3,field.name4,field.name5,field.name6,field.name7,field.name8,field.name9,field.name10,field.name11,field.name12,field.name13,field.name14,field.position0,field.position1,field.position2,field.position3,field.position4,field.position5,field.position6,field.position7,field.position8,field.position9,field.position10,field.position11,field.position12,field.position13,field.position14,field.velocity0,field.velocity1,field.velocity2,field.velocity3,field.velocity4,field.velocity5,field.velocity6,field.velocity7,field.velocity8,field.velocity9,field.velocity10,field.velocity11,field.velocity12,field.velocity13,field.velocity14,field.effort0,field.effort1,field.effort2,field.effort3,field.effort4,field.effort5,field.effort6,field.effort7,field.effort8,field.effort9,field.effort10,field.effort11,field.effort12,field.effort13,field.effort14
13100000000,1293,13098000000,,l_wheel_joint,r_wheel_joint,torso_lift_joint,bellows_joint,head_pan_joint,head_tilt_joint,shoulder_pan_joint,shoulder_lift_joint,upperarm_roll_joint,elbow_flex_joint,forearm_roll_joint,wrist_flex_joint,wrist_roll_joint,l_gripper_finger_joint,r_gripper_finger_joint,0.0751328518894,-0.14904518575,-2.01963223344e-07,0.00663818036462,-0.000489164831783,0.00250194977734,3.35885932401e-06,-1.21945011282,2.60105801697e-06,1.20593773434,-9.0639399275e-07,1.59294974433,6.58073856741e-07,0.0499318975628,0.0499327528436,1.70618796759e-05,0.000334166932725,0.000169692410667,0.00033413500461,-5.69477415818e-05,0.0044717506706,-0.000590794992488,0.000690197543133,0.000820660344358,0.023077340633,-0.000341741341461,-0.0262367748621,0.000260074911408,-0.00885273222474,-0.0088088765385,0.0,0.0,0.0,-1.66792371167,0.00207055481029,-0.0884737453319,0.099084544179,-31.2029641075,-0.0896281077278,-18.8528470194,-0.303835236898,0.0330160395829,-0.0575100958645,10.0008552808,9.99914471918
13108000000,1294,13108000000,,l_wheel_joint,r_wheel_joint,torso_lift_joint,bellows_joint,head_pan_joint,head_tilt_joint,shoulder_pan_joint,shoulder_lift_joint,upperarm_roll_joint,elbow_flex_joint,forearm_roll_joint,wrist_flex_joint,wrist_roll_joint,l_gripper_finger_joint,r_gripper_finger_joint,0.075126975734,-0.149048602123,-1.63399836152e-08,0.00663528452474,-0.000490346539468,0.00245246310148,3.02185743806e-06,-1.21943366208,7.82932851884e-07,1.20615889561,-6.66622835155e-07,1.5926890733,-1.16876918099e-06,0.0499318794849,0.0499327708524,-0.000502060442745,-2.45686925954e-05,7.12625708924e-05,-5.96663688336e-05,-0.000374882109066,-0.000612492503978,-0.000636309895268,0.0012990090974,0.00065125908622,0.0229055446646,-0.000244590611585,-0.0266325672069,7.31372819261e-05,-0.0088524716528,-0.0088091377975,0.0,0.0,0.0,-1.65733151446,0.00271115037601,-0.0717364155325,0.121761680365,-31.3366154764,-0.085841718202,-18.6503615774,-0.326042119086,-0.0890156757104,-0.0159802935989,10.0008913675,9.99910863254
13118000000,1295,13118000000,,l_wheel_joint,r_wheel_joint,torso_lift_joint,bellows_joint,head_pan_joint,head_tilt_joint,shoulder_pan_joint,shoulder_lift_joint,upperarm_roll_joint,elbow_flex_joint,forearm_roll_joint,wrist_flex_joint,wrist_roll_joint,l_gripper_finger_joint,r_gripper_finger_joint,0.0751257345828,-0.149062849125,-7.39597792082e-06,0.00662696192626,-0.000489648622044,0.00247755762709,1.26964995353e-05,-1.21941699476,-1.29971827381e-05,1.20640117578,3.03089639608e-06,1.59239675038,-5.48839334158e-06,0.0499320306882,0.049932619589,-0.000216241098721,-0.00115158022922,-0.00040714146497,-0.000414365521002,9.13612125629e-06,0.00289053556739,0.000589807878034,0.00153671330951,-0.00077393846669,0.0244271997971,8.4775649407e-05,-0.0289779129197,-0.000240581497629,-0.00883681430611,-0.00882479488267,0.0,0.0,0.0,-1.64730584078,0.00194032224566,-0.0829983355149,-0.464282765729,-31.4383388321,-0.0496130033221,-19.0426181496,-0.455026348744,0.334697186483,0.0639005342733,10.0005889008,9.99941109924
13131000000,1296,13128000000,,l_wheel_joint,r_wheel_joint,torso_lift_joint,bellows_joint,head_pan_joint,head_tilt_joint,shoulder_pan_joint,shoulder_lift_joint,upperarm_roll_joint,elbow_flex_joint,forearm_roll_joint,wrist_flex_joint,wrist_roll_joint,l_gripper_finger_joint,r_gripper_finger_joint,0.0751206662402,-0.149071006898,-7.89398162508e-07,0.0066373438807,-0.000488330714195,0.00240453877144,1.07951000299e-05,-1.21937314882,-4.91576593742e-06,1.20662194696,-6.38621052929e-07,1.59210418551,1.90578266057e-06,0.0499319448889,0.0499327053104,-0.000993457152311,-0.00212419671308,0.000219379045761,0.000485789956225,9.90715504448e-05,-0.00564474585911,5.49865821172e-05,0.00302500533622,0.000338318019661,0.0226530109875,-0.00020789034674,-0.028507370724,0.000327309428885,-0.00884951584388,-0.00881209482391,0.0,0.0,0.0,-1.67157939385,0.00175517975589,-0.0552019255658,-0.14625323062,-32.0875585263,-0.0807495013329,-18.2611357906,-0.318013872695,0.0911031203762,-0.0867361252526,10.0007604215,9.99923957849
13138000000,1297,13138000000,,l_wheel_joint,r_wheel_joint,torso_lift_joint,bellows_joint,head_pan_joint,head_tilt_joint,shoulder_pan_joint,shoulder_lift_joint,upperarm_roll_joint,elbow_flex_joint,forearm_roll_joint,wrist_flex_joint,wrist_roll_joint,l_gripper_finger_joint,r_gripper_finger_joint,0.0751274159711,-0.149043941875,-7.94521297462e-08,0.006637687022,-0.000493203009379,0.00246269355997,2.79648251311e-06,-1.21937756382,-9.42311322927e-06,1.20687836795,5.29347637279e-06,1.59182469385,-1.07804353817e-05,0.0499323125353,0.0499323375756,0.000149278941025,0.001543019176,0.000127337058355,0.000170799842601,-0.000499508100936,-0.000754098441909,-0.000585240631074,0.000984411418582,-0.000276910275314,0.0242397759516,0.000336065183426,-0.0280033836887,-0.000840296839759,-0.00882666347396,-0.00883494806163,0.0,0.0,0.0,-1.66370168308,0.00297182823939,-0.0716185114734,0.0869998226297,-31.2236909338,-0.065286905514,-18.5532745403,-0.519923253649,-0.180199854507,0.176638796274,10.0000250403,9.99997495968
13148000000,1298,13148000000,,l_wheel_joint,r_wheel_joint,torso_lift_joint,bellows_joint,head_pan_joint,head_tilt_joint,shoulder_pan_joint,shoulder_lift_joint,upperarm_roll_joint,elbow_flex_joint,forearm_roll_joint,wrist_flex_joint,wrist_roll_joint,l_gripper_finger_joint,r_gripper_finger_joint,0.0751211464992,-0.149058186048,-3.41300088088e-09,0.00663385617139,-0.000483992889872,0.00248517879948,1.03076337288e-05,-1.219353596,-4.28393305008e-06,1.20713109575,-6.86430116303e-07,1.59151705235,4.01591525456e-06,0.0499320937707,0.0499325563175,-0.000650882927156,-0.000719559296395,5.18674113532e-05,-0.000160351768226,0.000268294966276,0.00221726129952,0.000167412030541,0.00186378484025,0.000344780413854,0.0253010831467,-0.000283362533474,-0.0302685592612,0.000696373930971,-0.00885107344187,-0.00881053468509,0.0,0.0,0.0,-1.65445567527,0.00139938162694,-0.0812071478829,-0.196708184382,-31.4956908362,-0.0787282695385,-18.7174141722,-0.314895224077,0.111267280672,-0.147259109884,10.0004625468,9.99953745316
13158000000,1299,13158000000,,l_wheel_joint,r_wheel_joint,torso_lift_joint,bellows_joint,head_pan_joint,head_tilt_joint,shoulder_pan_joint,shoulder_lift_joint,upperarm_roll_joint,elbow_flex_joint,forearm_roll_joint,wrist_flex_joint,wrist_roll_joint,l_gripper_finger_joint,r_gripper_finger_joint,0.0751238036909,-0.149048035954,-3.78289447101e-06,0.00663149772804,-0.000490132027805,0.00253440243233,4.40783642297e-06,-1.21932805253,-1.23228911875e-06,1.20740133649,7.42433403644e-07,1.59118447244,-4.49491768251e-07,0.0499322909168,0.049932359108,0.000250106003939,0.000428175986237,1.84458634367e-05,0.000129289193234,-0.000308991716067,0.00701546303719,-0.000621311278,0.00261120447455,0.00100490527762,0.0271509918227,-0.000282848640617,-0.0332076673505,0.000204800034722,-0.00883519445945,-0.00882641403517,0.0,0.0,0.0,-1.66157952365,0.00257851154335,-0.0970784620815,0.200110944871,-31.7886028003,-0.0983692867316,-19.1213188201,-0.302602816443,0.610393385864,-0.075683275862,10.0000681912,9.99993180881
13168000000,1300,13168000000,,l_wheel_joint,r_wheel_joint,torso_lift_joint,bellows_joint,head_pan_joint,head_tilt_joint,shoulder_pan_joint,shoulder_lift_joint,upperarm_roll_joint,elbow_flex_joint,forearm_roll_joint,wrist_flex_joint,wrist_roll_joint,l_gripper_finger_joint,r_gripper_finger_joint,0.0751310333053,-0.1490513302,-4.00514531913e-07,0.00663809795861,-0.000487415837486,0.00245509364857,3.24301479537e-06,-1.21930347513,1.21265270003e-06,1.20764603976,-7.80775147646e-07,1.59088949962,-2.17324832708e-06,0.0499319641079,0.0499326858274,0.00035711279001,0.000374204955884,0.000197720335334,0.000447720958792,-0.000194730383988,0.000536723652609,-0.000665611676613,0.00180034754273,0.000707940509222,0.0263159666217,-0.000164054156891,-0.0310083224168,-0.000130588006897,-0.00885916478726,-0.00880244639304,0.0,0.0,0.0,-1.67076757794,0.00233912411792,-0.0752629804148,0.126377418157,-31.5374961451,-0.0864077548835,-18.7335699078,-0.339416947599,0.10254431375,0.0220448733322,10.0007217194,9.99927828055
13178000000,1301,13178000000,,l_wheel_joint,r_wheel_joint,torso_lift_joint,bellows_joint,head_pan_joint,head_tilt_joint,shoulder_pan_joint,shoulder_lift_joint,upperarm_roll_joint,elbow_flex_joint,forearm_roll_joint,wrist_flex_joint,wrist_roll_joint,l_gripper_finger_joint,r_gripper_finger_joint,0.0751260153928,-0.149050925709,-3.76967623742e-08,0.00663621301113,-0.000486734365841,0.00243266376892,2.77793904147e-06,-1.219292893,1.93397655135e-06,1.20790796236,6.3800033967e-07,1.59058921836,-2.95244614446e-06,0.049932320276,0.0499323296005,-0.000308389066612,0.00035390949435,9.22138178705e-05,2.7555597417e-05,-0.000291025885887,-0.0033281723129,-0.000587515140763,0.00148276126148,0.000714605998808,0.0262135071124,-0.000159118942979,-0.0305076384982,5.90072238347e-05,-0.00884481838514,-0.00881679116665,0.0,0.0,0.0,-1.65974685481,0.00252898923514,-0.062995396129,0.101527317519,-31.3381367617,-0.0869844905688,-18.5028631444,-0.374290798979,-0.212102176714,-0.000984180188106,10.0000093245,9.99999067552
13188000000,1302,13188000000,,l_wheel_joint,r_wheel_joint,torso_lift_joint,bellows_joint,head_pan_joint,head_tilt_joint,shoulder_pan_joint,shoulder_lift_joint,upperarm_roll_joint,elbow_flex_joint,forearm_roll_joint,wrist_flex_joint,wrist_roll_joint,l_gripper_finger_joint,r_gripper_finger_joint,0.0751282576932,-0.149049637529,-1.44767273464e-05,0.00661989609062,-0.000492712456641,0.00239367391251,2.1047077059e-06,-1.21927496074,6.34422065904e-06,1.20815765617,-1.11930892821e-06,1.5902817643,1.66118170419e-06,0.0499322890727,0.049932360751,0.000199350474588,0.000171244308804,-0.00142696974863,-0.00146828579093,-0.000776962540356,-0.00751078274286,-0.000663217921983,0.00126378297657,0.00114718701846,0.0244417195024,-0.000339324393573,-0.029570714801,0.000410056665989,-0.0088550165749,-0.00880659220172,0.0,0.0,0.0,-1.6200764688,0.00352477490728,-0.0492778691466,0.179122401663,-30.9796343046,-0.100897762626,-17.3823252392,-0.288618394728,-0.893512959636,-0.08435933208,10.0000716783,9.99992832173
13201000000,1303,13198000000,,l_wheel_joint,r_wheel_joint,torso_lift_joint,bellows_joint,head_pan_joint,head_tilt_joint,shoulder_pan_joint,shoulder_lift_joint,upperarm_roll_joint,elbow_flex_joint,forearm_roll_joint,wrist_flex_joint,wrist_roll_joint,l_gripper_finger_joint,r_gripper_finger_joint,0.0751248788107,-0.149054609157,-1.54894147307e-06,0.00663525211215,-0.000497297956605,0.00243785882048,3.00060990099e-06,-1.21922567948,5.91510998671e-06,1.20845889436,-1.23485959946e-06,1.58990131034,2.15438526663e-06,0.0499320110523,0.0499326387258,-0.000159623680674,-0.00017146845173,0.000186952571575,0.000420244352043,-0.000790969757457,-0.00394534479158,-0.000603186461743,0.00381579728339,0.00102605404686,0.0270060512488,-0.000375926626979,-0.0341890656925,0.00037507774098,-0.00887126539203,-0.00879034287531,0.0,0.0,0.0,-1.66951275452,0.00357113134134,-0.0612997302397,0.104303783261,-32.3055704304,-0.0935388364272,-18.401727503,-0.31447690857,0.278015371816,-0.0750949014912,10.0006276735,9.99937232649
13208000000,1304,13208000000,,l_wheel_joint,r_wheel_joint,torso_lift_joint,bellows_joint,head_pan_joint,head_tilt_joint,shoulder_pan_joint,shoulder_lift_joint,upperarm_roll_joint,elbow_flex_joint,forearm_roll_joint,wrist_flex_joint,wrist_roll_joint,l_gripper_finger_joint,r_gripper_finger_joint,0.0751243563808,-0.149046505491,-1.610342033e-07,0.00663823730379,-0.000499401603091,0.00250068510663,2.47865035252e-06,-1.21922647691,2.39178369466e-06,1.2087511773,1.06085577301e-06,1.58957926857,-2.74826643043e-06,0.0499322331669,0.0499324165482,-0.000378951413153,0.000243776001803,0.000152486311167,0.000324543716859,-0.00058722565259,0.00379621967008,-0.000637837434047,0.00104891981043,0.000752876061375,0.0287574539332,-0.000224331575831,-0.0330745547446,2.16201580732e-05,-0.00884620545079,-0.00881540309965,0.0,0.0,0.0,-1.66769304814,0.00317205771754,-0.0864092122091,0.137274929763,-31.1854084478,-0.0898188355081,-18.7934471288,-0.357425675034,-0.0657665452187,-0.00350986059183,10.0001833814,9.99981661864
13218000000,1305,13218000000,,l_wheel_joint,r_wheel_joint,torso_lift_joint,bellows_joint,head_pan_joint,head_tilt_joint,shoulder_pan_joint,shoulder_lift_joint,upperarm_roll_joint,elbow_flex_joint,forearm_roll_joint,wrist_flex_joint,wrist_roll_joint,l_gripper_finger_joint,r_gripper_finger_joint,0.0751250563261,-0.149047602071,-1.17843402882e-08,0.00663506611057,-0.000503562876397,0.00246581109448,2.82179350108e-06,-1.21920333477,4.30654535055e-06,1.20903432606,-7.58497354703e-07,1.58923916742,4.62627768094e-07,0.049931971232,0.0499326784266,-0.000133187166301,0.000156546476613,5.78094764434e-05,-7.9080180676e-05,-0.000736234421359,0.000752692159342,-0.000581567021231,0.00184436696889,0.000847358674796,0.0289182653451,-0.00030045225329,-0.0341847987974,0.000281127595013,-0.0088589954165,-0.008802613275,0.0,0.0,0.0,-1.65679099617,0.00348672034831,-0.0762324093123,0.116076126698,-31.3854986182,-0.0912987469381,-18.6802835115,-0.317535465106,-0.0372872735434,-0.0545426752115,10.0007071946,9.99929280538
13228000000,1306,13228000000,,l_wheel_joint,r_wheel_joint,torso_lift_joint,bellows_joint,head_pan_joint,head_tilt_joint,shoulder_pan_joint,shoulder_lift_joint,upperarm_roll_joint,elbow_flex_joint,forearm_roll_joint,wrist_flex_joint,wrist_roll_joint,l_gripper_finger_joint,r_gripper_finger_joint,0.0751389635163,-0.149041969154,-5.91488217638e-06,0.00662885406884,-0.000505395609588,0.00251008404504,1.32290951269e-05,-1.2191809218,-1.15166019281e-05,1.20934246528,4.2995872338e-06,1.58886504845,-6.03678572464e-06,0.0499323190456,0.0499323305542,0.00128098068367,0.000533929390563,-0.000228661815076,-0.000193131279334,-0.000248332794594,0.00582853142837,0.000593058797402,0.0021935273922,-0.000664905856637,0.0310662234035,0.000110170320186,-0.0372846388286,-0.000207254297909,-0.00881332013392,-0.008848288566,0.0,0.0,0.0,-1.6531245955,0.00251824802754,-0.0927881156361,-0.279050328608,-31.4623631221,-0.0659863540214,-19.2211312832,-0.438600552117,0.504212433876,0.0312155632197,10.0000115085,9.99998849148
13237000000,1307,13238000000,,l_wheel_joint,r_wheel_joint,torso_lift_joint,bellows_joint,head_pan_joint,head_tilt_joint,shoulder_pan_joint,shoulder_lift_joint,upperarm_roll_joint,elbow_flex_joint,forearm_roll_joint,wrist_flex_joint,wrist_roll_joint,l_gripper_finger_joint,r_gripper_finger_joint,0.0751292800715,-0.149064811122,-6.29649537219e-07,0.00663764115185,-0.000506240728526,0.00241211983737,6.23216280182e-06,-1.21913803223,3.33461095892e-06,1.20962157903,-8.19517605777e-07,1.58850769488,6.69193696012e-07,0.0499315678346,0.0499330816718,-0.00014149683429,-0.000835930342422,0.000206105341393,0.00046450299369,-0.000346876169561,-0.00441262696195,-0.000414839583538,0.00294704947188,0.000540979556307,0.0294785788628,-0.000152145586241,-0.036076416957,4.30102893524e-05,-0.00887051804968,-0.00879109411755,0.0,0.0,0.0,-1.671101569,0.00271871525322,-0.0591257142352,0.0339155448207,-31.8742379066,-0.0871865186519,-18.5232692978,-0.359582857337,0.177371925189,-0.0195887013717,10.0015138372,9.99848616284
13248000000,1308,13248000000,,l_wheel_joint,r_wheel_joint,torso_lift_joint,bellows_joint,head_pan_joint,head_tilt_joint,shoulder_pan_joint,shoulder_lift_joint,upperarm_roll_joint,elbow_flex_joint,forearm_roll_joint,wrist_flex_joint,wrist_roll_joint,l_gripper_finger_joint,r_gripper_finger_joint,0.0751332760639,-0.149046052115,-6.18760982402e-08,0.00663697581926,-0.000500778935113,0.00244646788051,5.06948060508e-06,-1.2191344848,3.17285375129e-06,1.20992794479,6.89320759584e-07,1.5881636408,-2.97631198087e-06,0.0499322019996,0.0499324474609,0.000293620351884,0.000473542868986,0.000109199953921,0.000104806481301,0.000257336015474,-0.0023321422885,-0.000364008229785,0.00142897407364,0.000763076513946,0.0299834445483,-0.000263696389396,-0.0349099276241,0.000155403285199,-0.00882344349551,-0.00883816514095,0.0,0.0,0.0,-1.66187185136,0.00148844370951,-0.0663976095497,0.0402887040003,-31.2073410128,-0.0939489384023,-18.454351417,-0.330764445359,-0.252699462329,-0.0370508863506,10.0002454613,9.99975453873
13260000000,1309,13258000000,,l_wheel_joint,r_wheel_joint,torso_lift_joint,bellows_joint,head_pan_joint,head_tilt_joint,shoulder_pan_joint,shoulder_lift_joint,upperarm_roll_joint,elbow_flex_joint,forearm_roll_joint,wrist_flex_joint,wrist_roll_joint,l_gripper_finger_joint,r_gripper_finger_joint,0.0751321310074,-0.149043139949,-1.58704725603e-09,0.00663341211795,-0.000496291943502,0.00248190345227,7.41203584465e-06,-1.21910400219,2.42028091968e-06,1.21024556589,-7.39506547554e-07,1.58777718438,2.21737547879e-06,0.0499317631783,0.0499328862056,3.83734811752e-05,0.000317505430328,3.24531905468e-05,-0.00016883426467,0.000141580537021,0.00156536559867,-0.000303387018526,0.00249820140026,0.000574748246052,0.0313793969435,-0.000214297135375,-0.0376815910671,0.000335374858511,-0.00886162830845,-0.00879998192339,0.0,0.0,0.0,-1.65413237125,0.00170200669997,-0.079153200364,-0.0398333290932,-31.5562153635,-0.0877552071014,-18.7184626038,-0.326926050734,0.137170639441,-0.079179289141,10.0011230273,9.99887697267
13268000000,1310,13268000000,,l_wheel_joint,r_wheel_joint,torso_lift_joint,bellows_joint,head_pan_joint,head_tilt_joint,shoulder_pan_joint,shoulder_lift_joint,upperarm_roll_joint,elbow_flex_joint,forearm_roll_joint,wrist_flex_joint,wrist_roll_joint,l_gripper_finger_joint,r_gripper_finger_joint,0.0751345773899,-0.14906608787,-3.02294609017e-06,0.00663295095041,-0.000492617744236,0.00252191755687,4.71604582852e-06,-1.21907250117,1.15983860516e-05,1.21057386414,-2.73767565062e-06,1.58737193815,6.85201578143e-07,0.0499319270856,0.0499327222396,0.000715307193589,-0.000860657556569,8.46423980305e-05,0.000257870921075,0.000241207077296,0.00502514223387,-0.000595264283641,0.00331640304735,0.00143449217267,0.0328649003674,-0.000474368805121,-0.0404078134212,0.000313374937215,-0.00885272014727,-0.0088088889283,0.0,0.0,0.0,-1.66506237889,0.00148805682235,-0.0907329534077,0.0684701796839,-31.8839223419,-0.10719215212,-18.9857220539,-0.254011591695,0.585836358811,-0.0771851285623,10.000795154,9.99920484601
13279000000,1311,13278000000,,l_wheel_joint,r_wheel_joint,torso_lift_joint,bellows_joint,head_pan_joint,head_tilt_joint,shoulder_pan_joint,shoulder_lift_joint,upperarm_roll_joint,elbow_flex_joint,forearm_roll_joint,wrist_flex_joint,wrist_roll_joint,l_gripper_finger_joint,r_gripper_finger_joint,0.0751248274549,-0.1490632481,-3.1970704639e-07,0.00663855709766,-0.000484992404941,0.00247522338649,1.13874150829e-05,-1.21905091819,-1.29358018963e-06,1.21088223262,2.23212759209e-06,1.5870081053,-3.49280811029e-06,0.0499324494663,0.0499321997796,-0.000771068005577,-0.00136621494396,0.000191236859993,0.000436891133384,0.000738289618256,0.00252450242585,0.000180224383247,0.00187021796781,0.00014261533685,0.0324334403529,-4.19888102584e-05,-0.0380898334186,7.11791263538e-05,-0.0088219839318,-0.00883962560512,0.0,0.0,0.0,-1.67060151613,0.000463390383253,-0.0818302088721,-0.217365485075,-31.3470200024,-0.0833413563446,-18.7129916887,-0.381312768102,0.0389378499736,-0.0248064770933,9.99975031329,10.0002496867
13288000000,1312,13288000000,,l_wheel_joint,r_wheel_joint,torso_lift_joint,bellows_joint,head_pan_joint,head_tilt_joint,shoulder_pan_joint,shoulder_lift_joint,upperarm_roll_joint,elbow_flex_joint,forearm_roll_joint,wrist_flex_joint,wrist_roll_joint,l_gripper_finger_joint,r_gripper_finger_joint,0.0751269206254,-0.149042401017,-2.92033089423e-08,0.00663626070363,-0.000490988809323,0.00243255804598,2.67293589395e-06,-1.2190316481,8.33365375819e-07,1.2112054222,4.70794785734e-06,1.58662949228,-7.71133884747e-06,0.0499323177824,0.0499323313727,-0.000240358264744,0.00172656850206,8.41515342865e-05,8.13144167851e-08,-0.000553715207661,-0.00302517123934,-0.000730655811603,0.00206896525256,-7.36216320247e-05,0.0323852880376,0.000312706429152,-0.0381203094038,-0.000589908009764,-0.00884524978349,-0.00881636195839,0.0,0.0,0.0,-1.65907085918,0.00307138565261,-0.0639012276612,0.179975823374,-31.3327452982,-0.0789781261461,-18.5041405016,-0.509814763758,-0.168316331471,0.126292032726,10.0000135903,9.99998640975
13298000000,1313,13298000000,,l_wheel_joint,r_wheel_joint,torso_lift_joint,bellows_joint,head_pan_joint,head_tilt_joint,shoulder_pan_joint,shoulder_lift_joint,upperarm_roll_joint,elbow_flex_joint,forearm_roll_joint,wrist_flex_joint,wrist_roll_joint,l_gripper_finger_joint,r_gripper_finger_joint,0.0751162210153,-0.149059859365,-1.1561145819e-05,0.00662095398358,-0.000498274802033,0.00237500953474,-6.72286987058e-06,-1.21902063824,1.5813824608e-05,1.21152784908,1.53232107447e-06,1.58624748313,-3.2523102762e-06,0.0499321926748,0.0499324564617,-0.00144912404444,-0.000930104554514,-0.000960449000732,-0.00124546615647,-0.00109539740212,-0.00842189857115,-0.00125802350842,0.000759593410925,0.00124957400654,0.0320663161626,-0.000118151889324,-0.0374399935526,4.31339647554e-05,-0.00886212379478,-0.00879948396193,0.0,0.0,0.0,-1.62554698521,0.00418389401238,-0.0459845903288,0.442771194998,-30.542480491,-0.10737902709,-18.3979198948,-0.41789210158,-0.467534247898,0.0261790000816,10.0002637869,9.9997362131
13308000000,1314,13308000000,,l_wheel_joint,r_wheel_joint,torso_lift_joint,bellows_joint,head_pan_joint,head_tilt_joint,shoulder_pan_joint,shoulder_lift_joint,upperarm_roll_joint,elbow_flex_joint,forearm_roll_joint,wrist_flex_joint,wrist_roll_joint,l_gripper_finger_joint,r_gripper_finger_joint,0.0751327583412,-0.149038789919,-1.23648198444e-06,0.00663630269498,-0.000493083424036,0.00241471975199,5.02129723134e-06,-1.21895358499,3.48460939481e-06,1.21187410256,1.52119908936e-06,1.58579607107,-4.97879372396e-07,0.0499318055757,0.0499328434885,0.000236485339376,0.00186311435736,0.000209318697088,0.000435241589445,-0.000694290648299,-0.00574532128047,-0.000441611165917,0.00436283755866,2.26899180358e-05,0.0328178983174,-5.69464654194e-05,-0.0412627322344,-2.9171986187e-06,-0.00887838125764,-0.00878322929293,0.0,0.0,0.0,-1.67011127373,0.00336091499274,-0.0552056287183,0.0183463974158,-32.2881221003,-0.0776265331449,-18.2707137332,-0.423357258413,0.23020299675,0.0146937282498,10.0010379128,9.99896208717
13317000000,1315,13318000000,,l_wheel_joint,r_wheel_joint,torso_lift_joint,bellows_joint,head_pan_joint,head_tilt_joint,shoulder_pan_joint,shoulder_lift_joint,upperarm_roll_joint,elbow_flex_joint,forearm_roll_joint,wrist_flex_joint,wrist_roll_joint,l_gripper_finger_joint,r_gripper_finger_joint,0.0751245486005,-0.149072941361,-1.27302735933e-07,0.00663831846195,-0.000484761533304,0.00248886255663,3.8675343248e-06,-1.2189524071,1.16523688707e-05,1.21223350366,-2.16562220423e-06,1.58539660564,-1.27338732181e-06,0.0499318628841,0.0499327861182,-0.000377995633607,-0.00110507191352,0.000157934686859,0.000270043025632,2.06452109368e-05,0.00234097170453,-0.000616460915717,0.00145911808219,0.00092751000012,0.0350655949189,-0.000383771202865,-0.0405523788278,2.81757525309e-05,-0.00886830682695,-0.00879330328977,0.0,0.0,0.0,-1.66634660397,0.00189775571134,-0.0816887918124,0.0915454949304,-31.1140026289,-0.0976910545521,-18.7857246096,-0.304076831871,-0.0452500533648,0.00497812677699,10.0009232341,9.99907676594
13328000000,1316,13328000000,,l_wheel_joint,r_wheel_joint,torso_lift_joint,bellows_joint,head_pan_joint,head_tilt_joint,shoulder_pan_joint,shoulder_lift_joint,upperarm_roll_joint,elbow_flex_joint,forearm_roll_joint,wrist_flex_joint,wrist_roll_joint,l_gripper_finger_joint,r_gripper_finger_joint,0.0751281158975,-0.149049620885,-8.02247566236e-09,0.00663452775081,-0.000485912577302,0.00247071380166,5.29345441791e-06,-1.21892075606,6.44564777996e-06,1.21257840996,6.82653332085e-07,1.58498243813,-2.25333689929e-06,0.0499324340359,0.0499322149133,0.000170000647662,0.000722232970273,6.34557689724e-05,-0.000132843715712,-7.05111456762e-05,0.00121180749743,-0.000344311158137,0.00245890842748,0.000655574365677,0.0352519201096,-0.000263491059287,-0.0416668484395,0.000302942820003,-0.0088304873687,-0.00883112074537,0.0,0.0,0.0,-1.65531184762,0.00208467260056,-0.0777568365419,0.0262557024239,-31.4097371569,-0.0951428094559,-18.690195787,-0.33477075169,-0.0168859525306,-0.0572217042127,9.99978087737,10.0002191226
13338000000,1317,13338000000,,l_wheel_joint,r_wheel_joint,torso_lift_joint,bellows_joint,head_pan_joint,head_tilt_joint,shoulder_pan_joint,shoulder_lift_joint,upperarm_roll_joint,elbow_flex_joint,forearm_roll_joint,wrist_flex_joint,wrist_roll_joint,l_gripper_finger_joint,r_gripper_finger_joint,0.0751182955466,-0.149056646507,-4.72875988553e-06,0.00663020070731,-0.00048605065949,0.00252736649911,9.31971207763e-06,-1.21888861615,1.92955752798e-06,1.21295206561,1.34279939434e-06,1.58452829152,1.1197810732e-06,0.0499323233187,0.0499323255597,-0.000383068823582,7.2342865774e-05,-7.82188378233e-05,-2.51445136789e-05,-0.000140536286376,0.00688294951321,-0.000133814071556,0.00318152323331,0.000342617482611,0.0374990753373,-0.000150089303343,-0.0451833077615,0.000380180634157,-0.00883885118913,-0.00882275823845,0.0,0.0,0.0,-1.65751265897,0.00222527521071,-0.0964698435129,0.0374990800267,-31.6750544383,-0.0953310471572,-19.2250882934,-0.338942037452,0.574022418344,-0.110192098222,10.0000022411,9.99999775891
13348000000,1318,13348000000,,l_wheel_joint,r_wheel_joint,torso_lift_joint,bellows_joint,head_pan_joint,head_tilt_joint,shoulder_pan_joint,shoulder_lift_joint,upperarm_roll_joint,elbow_flex_joint,forearm_roll_joint,wrist_flex_joint,wrist_roll_joint,l_gripper_finger_joint,r_gripper_finger_joint,0.075122477085,-0.149044411388,-5.02198423182e-07,0.00663769028605,-0.000488216350347,0.00243501884034,3.18851776271e-06,-1.21884642306,5.30382050723e-06,1.21329398863,8.49704087535e-07,1.5841071782,-2.51227136161e-06,0.049932143381,0.0499325054207,-3.89312946936e-05,0.000750979490352,0.000205900315065,0.000449337956883,-0.00029281405486,-0.00164556283045,-0.000702551153495,0.00315214992085,0.000638000099969,0.0360352763272,-0.000158646426016,-0.043155366034,-8.50296555707e-05,-0.0088518102776,-0.00880980016397,0.0,0.0,0.0,-1.67071879524,0.00253849351111,-0.0681138767187,0.154752882521,-31.785290994,-0.0926472602175,-18.6220403478,-0.363992171648,0.0923730581344,0.00765573762363,10.0003620397,9.99963796026
13358000000,1319,13358000000,,l_wheel_joint,r_wheel_joint,torso_lift_joint,bellows_joint,head_pan_joint,head_tilt_joint,shoulder_pan_joint,shoulder_lift_joint,upperarm_roll_joint,elbow_flex_joint,forearm_roll_joint,wrist_flex_joint,wrist_roll_joint,l_gripper_finger_joint,r_gripper_finger_joint,0.0751231276741,-0.149046027317,-4.87956636703e-08,0.00663653138757,-0.000485727518805,0.00243739996328,4.67708640084e-06,-1.21883370186,1.32035657963e-06,1.21366252215,2.37969638572e-06,1.58368659672,-6.02564358676e-06,0.0499323369495,0.0499323117807,0.000143504237784,0.000887478720423,0.000101665398083,6.8499070239e-05,-0.000281558789321,-0.00307939732282,-0.000421583295562,0.00213364001118,0.000107803361876,0.0364181754876,4.26405305775e-05,-0.0424746233583,-0.000290102449218,-0.00884150782501,-0.00882010261757,0.0,0.0,0.0,-1.66085142311,0.00250602765386,-0.0638838069298,0.00568038208422,-31.3182930196,-0.0797093888857,-18.5338923836,-0.432666957067,-0.264618176304,0.0710636041491,9.9999748312,10.0000251688
13368000000,1320,13368000000,,l_wheel_joint,r_wheel_joint,torso_lift_joint,bellows_joint,head_pan_joint,head_tilt_joint,shoulder_pan_joint,shoulder_lift_joint,upperarm_roll_joint,elbow_flex_joint,forearm_roll_joint,wrist_flex_joint,wrist_roll_joint,l_gripper_finger_joint,r_gripper_finger_joint,0.0751209019608,-0.149056592259,1.024196461e-11,0.00663310545216,-0.000488523483305,0.0024753262557,8.2438362714e-06,-1.2187963164,-1.50629596085e-06,1.21404142627,3.3707848619e-06,1.58322515519,-4.16643061651e-06,0.0499324160032,0.0499322326707,-0.000314201873134,-0.000428675279593,3.06335097371e-05,-0.000168560691369,-0.000474317050571,0.000739839547169,6.55128219311e-06,0.00318677144081,-0.000171708625071,0.0375253071743,0.000105455192184,-0.0451074511337,-7.2940812105e-05,-0.00884218249073,-0.00881942715806,0.0,0.0,0.0,-1.65406234448,0.00290272803436,-0.0764793063125,-0.146908138584,-31.7046844167,-0.0749978980897,-18.6947387072,-0.453246469723,0.0890357816692,0.0252560556444,9.99981666753,10.0001833325
13378000000,1321,13378000000,,l_wheel_joint,r_wheel_joint,torso_lift_joint,bellows_joint,head_pan_joint,head_tilt_joint,shoulder_pan_joint,shoulder_lift_joint,upperarm_roll_joint,elbow_flex_joint,forearm_roll_joint,wrist_flex_joint,wrist_roll_joint,l_gripper_finger_joint,r_gripper_finger_joint,0.0751326597788,-0.149052520763,-1.93434764339e-06,0.00663449944256,-0.000495784388279,0.00246642124005,4.91411379677e-06,-1.2187513306,9.02023381322e-06,1.21441931938,-1.16449164977e-06,1.58275120905,3.64925195218e-06,0.0499319430841,0.0499327055541,0.00071932827048,8.45003571032e-05,0.000165473903578,0.000370961628768,-0.000687969259613,-0.0012048006135,-0.000331059358758,0.00466707332487,0.000805739958063,0.0374856945949,-0.000364308745875,-0.0469057584654,0.000579815381535,-0.00887662309232,-0.0087849849494,0.0,0.0,0.0,-1.66814069482,0.00335907607234,-0.070378235361,-0.0327467778951,-32.3422089212,-0.0920315115686,-18.47884134,-0.3229476908,0.338971826872,-0.106527975444,10.0007624701,9.99923752992
13388000000,1322,13388000000,,l_wheel_joint,r_wheel_joint,torso_lift_joint,bellows_joint,head_pan_joint,head_tilt_joint,shoulder_pan_joint,shoulder_lift_joint,upperarm_roll_joint,elbow_flex_joint,forearm_roll_joint,wrist_flex_joint,wrist_roll_joint,l_gripper_finger_joint,r_gripper_finger_joint,0.0751263732258,-0.149057189903,-2.02690440944e-07,0.0066382396977,-0.000499171062032,0.00249951763182,5.86587985918e-06,-1.21874009957,9.7388891529e-07,1.21481142557,2.72226138787e-06,1.58230487122,-4.33912635511e-06,0.0499322102772,0.0499324382942,-0.000344540432941,-0.000683590966034,0.000162935745314,0.000355975307403,-0.000504143160138,0.00415686416073,-0.000275190993127,0.0019003603037,0.000194585899651,0.0392090022032,-7.78109421743e-05,-0.0457032615425,-0.000179458212252,-0.00884118864838,-0.00882042014427,0.0,0.0,0.0,-1.66848464342,0.0030049705684,-0.0874561214368,-0.0171542450329,-31.2493361265,-0.0837342671946,-18.8757487038,-0.401511911663,0.00540328954091,0.0325073072433,10.0002280169,9.99977198306
13398000000,1323,13398000000,,l_wheel_joint,r_wheel_joint,torso_lift_joint,bellows_joint,head_pan_joint,head_tilt_joint,shoulder_pan_joint,shoulder_lift_joint,upperarm_roll_joint,elbow_flex_joint,forearm_roll_joint,wrist_flex_joint,wrist_roll_joint,l_gripper_finger_joint,r_gripper_finger_joint,0.0751216558628,-0.149052410681,-1.66709784768e-08,0.00663516489719,-0.000504874105912,0.0024510233546,7.57962233333e-06,-1.21871108196,-4.42915909904e-06,1.21519247291,3.10672507098e-06,1.58185017884,-4.55606607108e-06,0.0499321434507,0.0499325050692,-0.000587249339494,-0.000209724890102,6.15226548625e-05,-6.70424872638e-05,-0.000628691407251,-0.000818750475715,-7.90576109285e-06,0.00251811047459,-0.000231463826376,0.0389115798211,-2.09817496289e-05,-0.0460210919369,-8.72664417072e-05,-0.00883171384126,-0.00882989465752,0.0,0.0,0.0,-1.65711724599,0.00327687923815,-0.0710744492107,-0.129916199049,-31.3747498728,-0.072362509363,-18.6099261117,-0.420092985626,-0.138930774903,0.022905276583,10.0003616186,9.99963838144
13408000000,1324,13408000000,,l_wheel_joint,r_wheel_joint,torso_lift_joint,bellows_joint,head_pan_joint,head_tilt_joint,shoulder_pan_joint,shoulder_lift_joint,upperarm_roll_joint,elbow_flex_joint,forearm_roll_joint,wrist_flex_joint,wrist_roll_joint,l_gripper_finger_joint,r_gripper_finger_joint,0.0751355126553,-0.14904852239,-7.41296856613e-06,0.00662670664911,-0.000508658998196,0.00247653925208,1.69301978117e-05,-1.21868267051,-2.01883399793e-05,1.21559691305,7.05329081718e-06,1.5813623371,-9.34465450708e-06,0.0499319189345,0.0499327295172,0.000851785635193,6.66556561041e-05,-0.000421245577485,-0.000435678863129,-0.000338627177029,0.00265889521349,0.00106865176953,0.00275186752877,-0.00186855323406,0.040512201838,0.000462198357077,-0.048439129866,-0.000665258037766,-0.00883002609249,-0.00883158392012,0.0,0.0,0.0,-1.64671131177,0.00271189034684,-0.0822728632029,-0.71148843911,-31.4530101762,-0.0295108032561,-18.9954911038,-0.584539451005,0.287902296661,0.154179343875,10.0008105826,9.99918941738
13418000000,1325,13418000000,,l_wheel_joint,r_wheel_joint,torso_lift_joint,bellows_joint,head_pan_joint,head_tilt_joint,shoulder_pan_joint,shoulder_lift_joint,upperarm_roll_joint,elbow_flex_joint,forearm_roll_joint,wrist_flex_joint,wrist_roll_joint,l_gripper_finger_joint,r_gripper_finger_joint,0.0751330935226,-0.14904197306,-7.91063341682e-07,0.00663715568916,-0.000512300280174,0.00240555700501,9.22795406932e-06,-1.21862699385,-7.94650206526e-06,1.21598338541,1.9684910022e-06,1.58087032206,-2.0842568853e-06,0.0499315385299,0.0499331098502,0.000173906651522,0.000640727552777,0.000203418756408,0.000469976442621,-0.000434889294009,-0.00557147988545,8.47721794392e-06,0.00418706820693,-0.000399085324839,0.0391453163806,1.99397349809e-05,-0.0483056072074,-9.83471004125e-05,-0.0088514008927,-0.00881021046168,0.0,0.0,0.0,-1.67113721627,0.00291897970871,-0.0554522704938,-0.21282439549,-32.0680508182,-0.0627937198715,-18.3191737198,-0.434123461888,0.116240609178,0.0221356792979,10.0015713203,9.99842867972
13428000000,1326,13428000000,,l_wheel_joint,r_wheel_joint,torso_lift_joint,bellows_joint,head_pan_joint,head_tilt_joint,shoulder_pan_joint,shoulder_lift_joint,upperarm_roll_joint,elbow_flex_joint,forearm_roll_joint,wrist_flex_joint,wrist_roll_joint,l_gripper_finger_joint,r_gripper_finger_joint,0.0751266394344,-0.149051310348,-7.98994520684e-08,0.00663759076212,-0.000505882614422,0.00246074505,9.0075106014e-06,-1.21861850144,-7.90974804321e-06,1.21639931998,2.02679581474e-06,1.58039661494,-4.1662552368e-06,0.0499317467628,0.0499329015507,-0.000521059332691,-0.000647685852612,0.000119363166802,0.000176340449016,0.000167414768943,-0.000949747808159,-2.54355541422e-05,0.00213706225292,-0.000147502741918,0.0405484870889,-8.04813209887e-06,-0.0476706407423,-0.000201507916253,-0.00883131523009,-0.00883029540106,0.0,0.0,0.0,-1.66381618919,0.0016887009198,-0.0709731080756,-0.154140173169,-31.196382445,-0.0695604077245,-18.5297790863,-0.410079889667,-0.182551590475,0.0360052620497,10.0011547879,9.99884521214
13438000000,1327,13438000000,,l_wheel_joint,r_wheel_joint,torso_lift_joint,bellows_joint,head_pan_joint,head_tilt_joint,shoulder_pan_joint,shoulder_lift_joint,upperarm_roll_joint,elbow_flex_joint,forearm_roll_joint,wrist_flex_joint,wrist_roll_joint,l_gripper_finger_joint,r_gripper_finger_joint,0.0751323082547,-0.149030748007,-3.46181391536e-09,0.00663390785958,-0.000506730067442,0.00248076300701,5.42819472837e-06,-1.21858185461,-7.48498435055e-06,1.21681657392,2.45254865305e-06,1.57989232869,-4.24439493063e-06,0.0499317781839,0.0499328700592,0.000199810205012,0.0015969067868,3.60204467032e-05,-0.000157496365562,-0.000211310342453,0.0017160998604,-0.000368435424996,0.00307798131281,-0.000104083471452,0.0416861656329,7.2366644456e-05,-0.0498696402733,-0.000206262580452,-0.00883279399311,-0.00882881672413,0.0,0.0,0.0,-1.65453998848,0.00244954095467,-0.0795711897913,0.0321730609124,-31.466828441,-0.0707733919089,-18.7149822721,-0.432012234128,0.0910083387877,0.0411987448072,10.0010918754,9.99890812465
13448000000,1328,13448000000,,l_wheel_joint,r_wheel_joint,torso_lift_joint,bellows_joint,head_pan_joint,head_tilt_joint,shoulder_pan_joint,shoulder_lift_joint,upperarm_roll_joint,elbow_flex_joint,forearm_roll_joint,wrist_flex_joint,wrist_roll_joint,l_gripper_finger_joint,r_gripper_finger_joint,0.0751300147365,-0.149039146186,-3.7855112903e-06,0.00663169632268,-0.000499877102692,0.00253523102833,8.24746243744e-06,-1.21854497522,-3.50204202082e-06,1.21724949184,-6.10711945015e-07,1.57936420356,2.10276495061e-06,0.0499319536327,0.049932694568,-7.64839905392e-06,0.000190806860208,1.24469479199e-05,0.000138160838437,0.000319355105387,0.00705905208239,-0.000157138540698,0.00378588205279,0.000635295962088,0.0434960738726,-0.000292051555285,-0.05284126512,0.000540601838298,-0.00882645372097,-0.00883515472724,0.0,0.0,0.0,-1.66185129054,0.0013607982,-0.0972340870969,-0.00790644050839,-31.7319646522,-0.0902022221108,-19.0736777951,-0.280379778218,0.580190246517,-0.139275498454,10.0007409353,9.99925906468
13458000000,1329,13458000000,,l_wheel_joint,r_wheel_joint,torso_lift_joint,bellows_joint,head_pan_joint,head_tilt_joint,shoulder_pan_joint,shoulder_lift_joint,upperarm_roll_joint,elbow_flex_joint,forearm_roll_joint,wrist_flex_joint,wrist_roll_joint,l_gripper_finger_joint,r_gripper_finger_joint,0.0751397059289,-0.149048838275,-4.00772350604e-07,0.00663842455099,-0.000494357201125,0.00245480657662,3.44076196424e-06,-1.21850588925,4.68623397865e-06,1.217658362,-1.99016729763e-06,1.57886955826,1.4669644699e-06,0.0499315112895,0.04993313681,0.000508684494401,-0.00044426066342,0.000194296683049,0.000461402004726,0.00023878744835,0.000577616199286,-0.000806712289126,0.00313754667846,0.00114572674884,0.0426999005878,-0.000275531970631,-0.0508404202011,6.10107909194e-05,-0.00886749604918,-0.00879411589326,0.0,0.0,0.0,-1.67119128441,0.0014998539078,-0.0753770458964,0.183933456914,-31.537730727,-0.0968419096464,-18.692489481,-0.31053118297,0.112263508271,-0.033905076844,10.0016255205,9.9983744795
13468000000,1330,13468000000,,l_wheel_joint,r_wheel_joint,torso_lift_joint,bellows_joint,head_pan_joint,head_tilt_joint,shoulder_pan_joint,shoulder_lift_joint,upperarm_roll_joint,elbow_flex_joint,forearm_roll_joint,wrist_flex_joint,wrist_roll_joint,l_gripper_finger_joint,r_gripper_finger_joint,0.0751340254498,-0.14905122686,-3.78606176551e-08,0.00663671198502,-0.00049036701035,0.00243071215927,1.98927749118e-06,-1.21848310506,4.87338593658e-06,1.21808424228,-6.34756086804e-07,1.57837264905,-3.97998812218e-06,0.0499322311816,0.0499324168674,-0.000331236832314,-0.000486988970892,9.45496908029e-05,4.36046555041e-05,0.000198333941011,-0.00343901032534,-0.000706484130259,0.00273595833294,0.00108868016601,0.042585895675,-0.000252657997144,-0.0502071417535,3.9235816549e-05,-0.00882549340207,-0.00883611528391,0.0,0.0,0.0,-1.66027284522,0.00156480015938,-0.0626043338019,0.156110633811,-31.2981869083,-0.0968832487148,-18.444958014,-0.313128418867,-0.232399674763,-0.00434257670635,10.0001856858,9.99981431421
13478000000,1331,13478000000,,l_wheel_joint,r_wheel_joint,torso_lift_joint,bellows_joint,head_pan_joint,head_tilt_joint,shoulder_pan_joint,shoulder_lift_joint,upperarm_roll_joint,elbow_flex_joint,forearm_roll_joint,wrist_flex_joint,wrist_roll_joint,l_gripper_finger_joint,r_gripper_finger_joint,0.075132543597,-0.149043784789,8.14715109473e-10,0.00663307303982,-0.000486892215939,0.00246613237618,9.17608099105e-06,-1.21843967668,-2.33614707223e-06,1.21852796861,1.13987506989e-06,1.57783280783,2.34975672875e-06,0.0499321394045,0.0499325085847,-0.000204880257276,-5.50680644183e-05,2.83776267257e-05,-0.000188421846998,0.00016647321972,-0.000238064469093,-1.34293201579e-05,0.00379643648138,0.00038517008191,0.0437893497675,-0.000158834713123,-0.052779398196,0.000510428513576,-0.00884620243208,-0.00881540629579,0.0,0.0,0.0,-1.65355761194,0.00161462242432,-0.0732697778781,-0.139638155365,-31.698374942,-0.0828014318825,-18.6386027036,-0.362354079389,0.124766465512,-0.112706063428,10.0003691801,9.99963081986
13488000000,1332,13488000000,,l_wheel_joint,r_wheel_joint,torso_lift_joint,bellows_joint,head_pan_joint,head_tilt_joint,shoulder_pan_joint,shoulder_lift_joint,upperarm_roll_joint,elbow_flex_joint,forearm_roll_joint,wrist_flex_joint,wrist_roll_joint,l_gripper_finger_joint,r_gripper_finger_joint,0.075131564739,-0.14903971659,-1.93727781139e-06,0.00663499377008,-0.000491752985623,0.00246702888367,2.88407294313e-06,-1.21839257858,5.69000294082e-06,1.21897174054,-1.74527684216e-06,1.57728442181,3.0330174221e-06,0.0499318462264,0.0499328017117,-9.53869321164e-05,0.000181125973048,0.000174082247415,0.000402325235349,-0.00033571586962,-0.00119005084573,-0.00070259086082,0.00498527313761,0.00115531262086,0.0440505203205,-0.000425450064093,-0.0544917329021,0.000409110791478,-0.00886734000704,-0.00879426852697,0.0,0.0,0.0,-1.66904873313,0.00263844368173,-0.0704407139729,0.145518549678,-32.2129137611,-0.0970062853773,-18.5180098002,-0.290940013606,0.356730980667,-0.0934131745362,10.0009554853,9.99904451465
13498000000,1333,13498000000,,l_wheel_joint,r_wheel_joint,torso_lift_joint,bellows_joint,head_pan_joint,head_tilt_joint,shoulder_pan_joint,shoulder_lift_joint,upperarm_roll_joint,elbow_flex_joint,forearm_roll_joint,wrist_flex_joint,wrist_roll_joint,l_gripper_finger_joint,r_gripper_finger_joint,0.0751288420141,-0.1490424469,-2.02550273001e-07,0.0066388434777,-0.000488992813866,0.00250295290683,2.19440144633e-06,-1.21837508135,3.21543084425e-06,1.21942605965,-5.93261328063e-07,1.57676349278,-2.83366639042e-06,0.0499320056682,0.0499326421931,-0.000288028359444,0.000194012911937,0.000174396928799,0.000373512759937,-0.000164552679505,0.0046238499921,-0.000719700499067,0.00244212227801,0.000760722808377,0.0455980356894,-0.000209245558156,-0.0532454543977,-0.000112929557846,-0.00885298007266,-0.00880862973341,0.0,0.0,0.0,-1.66907400721,0.00228507661447,-0.0889601371811,0.145728208336,-31.2013257915,-0.08896434543,-18.8574436258,-0.334554167877,0.0012585689093,0.0242628401194,10.0006365249,9.99936347509
13508000000,1334,13508000000,,l_wheel_joint,r_wheel_joint,torso_lift_joint,bellows_joint,head_pan_joint,head_tilt_joint,shoulder_pan_joint,shoulder_lift_joint,upperarm_roll_joint,elbow_flex_joint,forearm_roll_joint,wrist_flex_joint,wrist_roll_joint,l_gripper_finger_joint,r_gripper_finger_joint,0.075129140973,-0.149041263272,-1.68657934053e-08,0.00663554031657,-0.000487378715702,0.00244983790759,4.2290899458e-06,-1.21833937301,3.01759701671e-06,1.21987225491,-6.72265223933e-07,1.57623058993,-8.57716230485e-07,0.0499321327236,0.0499325150792,-4.52653421835e-05,0.000451102957587,7.61864153699e-05,-7.46920061835e-05,-0.000197023221815,-0.000800089181144,-0.000454353963343,0.00313316379875,0.000686259810817,0.045447501977,-0.000245835126846,-0.0537724156062,0.000224932263608,-0.0088493516517,-0.00881225737695,0.0,0.0,0.0,-1.65701988721,0.00234356130644,-0.0710948696841,0.0593924051279,-31.3688156114,-0.088795198835,-18.6451010964,-0.326428757274,-0.100902449417,-0.03893879142,10.0003823556,9.99961764443
13518000000,1335,13518000000,,l_wheel_joint,r_wheel_joint,torso_lift_joint,bellows_joint,head_pan_joint,head_tilt_joint,shoulder_pan_joint,shoulder_lift_joint,upperarm_roll_joint,elbow_flex_joint,forearm_roll_joint,wrist_flex_joint,wrist_roll_joint,l_gripper_finger_joint,r_gripper_finger_joint,0.0751268747807,-0.149064680683,-9.25197335233e-06,0.00662401871565,-0.000488116465979,0.00241986873548,1.12392175335e-05,-1.21830875076,-7.17080186963e-06,1.22032856844,4.35976810476e-06,1.57568337959,-6.28805097058e-06,0.0499320055444,0.049932642189,-0.000132503363612,-0.0019306215985,-0.000644858271046,-0.000790184654043,-0.000116693693004,-0.00299369727587,0.000427107845536,0.00279056818215,-0.000596546575763,0.0458593831299,0.000268625018262,-0.054370377535,-0.000434388430921,-0.00886483755678,-0.00879677217984,0.0,0.0,0.0,-1.63740655923,0.00218585324992,-0.0636149702366,-0.60151226751,-31.3192223088,-0.0462636916388,-18.68604961,-0.550197398113,-0.0327808052281,0.123257157393,10.0006366446,9.99936335542
13528000000,1336,13528000000,,l_wheel_joint,r_wheel_joint,torso_lift_joint,bellows_joint,head_pan_joint,head_tilt_joint,shoulder_pan_joint,shoulder_lift_joint,upperarm_roll_joint,elbow_flex_joint,forearm_roll_joint,wrist_flex_joint,wrist_roll_joint,l_gripper_finger_joint,r_gripper_finger_joint,0.075125516945,-0.149043781352,-9.88592909592e-07,0.00663676393973,-0.000490883124262,0.00240123985247,5.38815011453e-06,-1.21824119076,-1.46665373357e-06,1.22078946293,2.39502353683e-06,1.57510018148,-3.53582004387e-06,0.049932077263,0.0499325703932,-0.000152571827359,0.00129167199176,0.000215579142876,0.000459825420311,-0.000526584445581,-0.00667261645593,-0.000417056219379,0.00509321421384,-2.49515060855e-05,0.0453784416188,7.95179995914e-05,-0.05592075761,-0.000231993394046,-0.00885747408472,-0.00880413725064,0.0,0.0,0.0,-1.67081019455,0.00301670138821,-0.0520193462061,0.0112525443736,-32.2366338759,-0.0740905062619,-18.2611738225,-0.451112712869,0.109828744272,0.0535966607998,10.0004931302,9.99950686985
13538000000,1337,13538000000,,l_wheel_joint,r_wheel_joint,torso_lift_joint,bellows_joint,head_pan_joint,head_tilt_joint,shoulder_pan_joint,shoulder_lift_joint,upperarm_roll_joint,elbow_flex_joint,forearm_roll_joint,wrist_flex_joint,wrist_roll_joint,l_gripper_finger_joint,r_gripper_finger_joint,0.0751208511449,-0.149050809299,-1.00997630987e-07,0.00663765096432,-0.000480522994031,0.00247943282083,9.07012038898e-06,-1.21822868296,-9.92743081518e-07,1.22127386632,1.0372757675e-06,1.57455006585,-1.22425194693e-06,0.04993216149,0.0499324861163,-0.000458533992233,-0.000177677926684,0.000141275931516,0.000204149144471,0.00034159750679,0.0010092487546,-7.6252567134e-06,0.00262679518291,0.000133686762539,0.0473253595682,-0.000132670723981,-0.0553883076268,9.04135633701e-05,-0.00885623479826,-0.00880537474071,0.0,0.0,0.0,-1.66452909439,0.00123889696254,-0.0774107308886,-0.224151398149,-31.222468705,-0.0753123094899,-18.6591144852,-0.389120913223,-0.166601678767,-0.0141328270371,10.0003246263,9.9996753737
13548000000,1338,13548000000,,l_wheel_joint,r_wheel_joint,torso_lift_joint,bellows_joint,head_pan_joint,head_tilt_joint,shoulder_pan_joint,shoulder_lift_joint,upperarm_roll_joint,elbow_flex_joint,forearm_roll_joint,wrist_flex_joint,wrist_roll_joint,l_gripper_finger_joint,r_gripper_finger_joint,0.0751272170346,-0.149050298067,-6.0101284645e-09,0.00663402705999,-0.000481875646753,0.00247946273382,8.27118500712e-06,-1.21818616431,-2.38961940813e-06,1.22175117063,2.83369607423e-06,1.57397504923,-6.11172265241e-06,0.0499323148452,0.0499323326836,0.000385132178411,6.40962255651e-05,5.28869267552e-05,-0.000141753268999,-0.000107240089504,0.00187283168307,-9.09526431577e-05,0.00358933583608,-0.000126666804873,0.0480541327121,0.00010754973891,-0.0572363882459,-0.000425989146576,-0.00884829348105,-0.00881331719672,0.0,0.0,0.0,-1.65496368454,0.00214198276602,-0.0800023770638,-0.166439752185,-31.5137519243,-0.0722843749307,-18.7338020895,-0.452128934747,0.0212153745518,0.0917285294459,10.0000178384,9.99998216156
13558000000,1339,13558000000,,l_wheel_joint,r_wheel_joint,torso_lift_joint,bellows_joint,head_pan_joint,head_tilt_joint,shoulder_pan_joint,shoulder_lift_joint,upperarm_roll_joint,elbow_flex_joint,forearm_roll_joint,wrist_flex_joint,wrist_roll_joint,l_gripper_finger_joint,r_gripper_finger_joint,0.0751206564806,-0.149052379844,-3.78525494982e-06,0.00663157173508,-0.000483921600477,0.00252624590296,1.12220273998e-05,-1.21814305946,-3.62576143775e-06,1.22224798597,3.55082876435e-06,1.57337034086,-4.44668549182e-06,0.0499328683122,0.0499317791788,-6.49713810559e-05,-0.00029933244545,2.19937695194e-05,0.000126931182393,-9.17874269854e-06,0.00608018502138,0.000330464480029,0.00437264103865,-7.67735600525e-05,0.049828763005,8.61367097056e-06,-0.0603634127301,0.000143801414187,-0.00881315003636,-0.00884845770373,0.0,0.0,0.0,-1.6615393702,0.0019540438873,-0.0940279321529,-0.251383513781,-31.811588799,-0.0807382757925,-19.105466909,-0.400349287069,0.533748373247,-0.0359585530701,9.99891086657,10.0010891334
13568000000,1340,13568000000,,l_wheel_joint,r_wheel_joint,torso_lift_joint,bellows_joint,head_pan_joint,head_tilt_joint,shoulder_pan_joint,shoulder_lift_joint,upperarm_roll_joint,elbow_flex_joint,forearm_roll_joint,wrist_flex_joint,wrist_roll_joint,l_gripper_finger_joint,r_gripper_finger_joint,0.0751193725607,-0.149050711883,-4.01607835818e-07,0.00663811626882,-0.000486492793054,0.00245677567394,7.55622805926e-06,-1.2180986095,1.1199691885e-06,1.22271938359,2.4666291436e-06,1.57280012484,-5.98394933604e-07,0.0499322566717,0.0499323907308,-0.000469884496524,-0.000173124481262,0.000200870972638,0.000448787610506,-0.000346814963296,0.000613067260737,-0.000291828645863,0.00371544794445,0.000183211190122,0.0489017323236,3.84091474016e-05,-0.0583472022262,9.62930680717e-06,-0.00886308602581,-0.00879852518877,0.0,0.0,0.0,-1.67079895845,0.00263960109881,-0.0755424720003,-0.000233334145047,-31.6355693851,-0.0853699649648,-18.6805511689,-0.419897021243,0.0596903432205,-0.0161260280999,10.0001340592,9.99986594085
13578000000,1341,13578000000,,l_wheel_joint,r_wheel_joint,torso_lift_joint,bellows_joint,head_pan_joint,head_tilt_joint,shoulder_pan_joint,shoulder_lift_joint,upperarm_roll_joint,elbow_flex_joint,forearm_roll_joint,wrist_flex_joint,wrist_roll_joint,l_gripper_finger_joint,r_gripper_finger_joint,0.0751280909609,-0.14906167489,-3.7543719117e-08,0.0066364645233,-0.000489776048212,0.00243620496394,1.41831363365e-06,-1.2180713926,1.16914208332e-05,1.2232098422,6.05572459733e-07,1.57222570976,-4.40650266142e-06,0.0499322928739,0.0499323544815,0.000283413059579,-0.000530316001998,9.61741823319e-05,4.34637867155e-05,-0.000604887155646,-0.00287350916996,-0.000824035392228,0.00325342371308,0.00101080459371,0.0489068097396,-0.000211623871608,-0.057847831309,-0.000192168089009,-0.00885641067576,-0.00880519855837,0.0,0.0,0.0,-1.66020741846,0.00316887850414,-0.0644656214082,0.183589330896,-31.3750880452,-0.10020140883,-18.4685356912,-0.368526810745,-0.254873259675,0.0487445790287,10.0000616077,9.99993839235
13588000000,1342,13588000000,,l_wheel_joint,r_wheel_joint,torso_lift_joint,bellows_joint,head_pan_joint,head_tilt_joint,shoulder_pan_joint,shoulder_lift_joint,upperarm_roll_joint,elbow_flex_joint,forearm_roll_joint,wrist_flex_joint,wrist_roll_joint,l_gripper_finger_joint,r_gripper_finger_joint,0.075123040302,-0.149053983562,1.15000544032e-09,0.00663284153687,-0.000493858570423,0.00246671159795,5.14464823365e-06,-1.21802315245,7.79076913204e-06,1.22371590192,7.47205654683e-07,1.57160994991,5.19181781122e-07,0.0499324789882,0.0499321683329,-0.000322574318915,-3.56437484996e-05,2.72308753871e-05,-0.000189968750277,-0.000562728854411,-0.000146312939182,-0.000275681132615,0.00427419475194,0.00072901336098,0.0501019605724,-0.000311518310067,-0.0604268241863,0.000551934481398,-0.00884076528423,-0.00882084147943,0.0,0.0,0.0,-1.65346102171,0.00310089199052,-0.073562409121,0.00926990923624,-31.7613411393,-0.0968090033643,-18.6562856399,-0.331366110679,0.109716183219,-0.109262382971,9.99968934473,10.0003106553
13598000000,1343,13598000000,,l_wheel_joint,r_wheel_joint,torso_lift_joint,bellows_joint,head_pan_joint,head_tilt_joint,shoulder_pan_joint,shoulder_lift_joint,upperarm_roll_joint,elbow_flex_joint,forearm_roll_joint,wrist_flex_joint,wrist_roll_joint,l_gripper_finger_joint,r_gripper_finger_joint,0.0751286557294,-0.149041063396,-1.93498332964e-06,0.00663435875839,-0.000501676569785,0.00246867897902,1.90913702447e-06,-1.21796905395,1.38012584756e-05,1.22422115244,-3.33083439319e-06,1.57098546997,7.29797734156e-06,0.0499316139308,0.0499330333323,0.000202090762532,0.000869885017553,0.000162702875062,0.000374018318924,-0.000912557729056,-0.00116315220311,-0.000801795184093,0.00564492164407,0.00129166509228,0.0502255163568,-0.000569228003242,-0.0621077788436,0.000784226922413,-0.00889478100121,-0.00876682749324,0.0,0.0,0.0,-1.66818202049,0.00383182173725,-0.0705709127613,0.16528749556,-32.354527553,-0.103487457896,-18.4928129255,-0.255839640036,0.342773290657,-0.159042194451,10.0014194015,9.99858059848
13608000000,1344,13608000000,,l_wheel_joint,r_wheel_joint,torso_lift_joint,bellows_joint,head_pan_joint,head_tilt_joint,shoulder_pan_joint,shoulder_lift_joint,upperarm_roll_joint,elbow_flex_joint,forearm_roll_joint,wrist_flex_joint,wrist_roll_joint,l_gripper_finger_joint,r_gripper_finger_joint,0.07512246763,-0.149048432591,-2.02489555212e-07,0.00663813490564,-0.000505144738393,0.00250402561968,1.46365360809e-06,-1.21794728226,3.71841745483e-06,1.22474036423,2.08306727512e-06,1.57038800647,-7.71549916845e-06,0.0499320701572,0.0499325770209,-0.000423026249195,0.000382567208262,0.000157043936924,0.000354869740954,-0.000786093697176,0.00456412904803,-0.000780724878041,0.00293729205718,0.000353162268471,0.0519627219363,-4.40483617801e-05,-0.0608521731822,-0.000544634655352,-0.00884111309336,-0.0088204970112,0.0,0.0,0.0,-1.66843078113,0.00359276634792,-0.0888131557344,0.166951186989,-31.2855277496,-0.0853258647374,-18.8933881213,-0.412204824198,-0.00594223283704,0.117659793589,10.0005068637,9.99949313629
13618000000,1345,13618000000,,l_wheel_joint,r_wheel_joint,torso_lift_joint,bellows_joint,head_pan_joint,head_tilt_joint,shoulder_pan_joint,shoulder_lift_joint,upperarm_roll_joint,elbow_flex_joint,forearm_roll_joint,wrist_flex_joint,wrist_roll_joint,l_gripper_finger_joint,r_gripper_finger_joint,0.0751295139084,-0.149046997642,-1.64160771411e-08,0.00663508225099,-0.000503044073951,0.00245456769149,4.00182908233e-06,-1.21790919258,7.41121676207e-06,1.22524765407,-1.69231876423e-06,1.56978426595,1.3871123361e-06,0.0499318606808,0.049932786445,0.000127224366204,0.000420485438193,5.8039383288e-05,-6.35353940464e-05,-0.000438519723489,-0.000398019594952,-0.000419543492587,0.00350279701106,0.000699465596061,0.0515989443582,-0.000344859477755,-0.0610466079571,0.000474655930464,-0.00885674321743,-0.00880486571942,0.0,0.0,0.0,-1.65718422991,0.00288921574278,-0.0724429719599,0.0420970301546,-31.3836638475,-0.0918977725756,-18.6206888917,-0.31478282057,-0.183407155165,-0.0816566729511,10.0009257642,9.99907423578
13628000000,1346,13628000000,,l_wheel_joint,r_wheel_joint,torso_lift_joint,bellows_joint,head_pan_joint,head_tilt_joint,shoulder_pan_joint,shoulder_lift_joint,upperarm_roll_joint,elbow_flex_joint,forearm_roll_joint,wrist_flex_joint,wrist_roll_joint,l_gripper_finger_joint,r_gripper_finger_joint,0.0751205325017,-0.149045894414,-9.26212120756e-06,0.00662395017367,-0.000514766842477,0.002420098871,3.83536408766e-06,-1.21787429636,-5.17070687334e-06,1.22576905537,4.93422357906e-06,1.56915809768,-8.04809256216e-06,0.0499317022138,0.049932944845,-0.000493185912658,0.00027324650176,-0.00066637801145,-0.000767871367601,-0.00102547278228,-0.00299762700468,-0.000183897959571,0.00320733602983,-0.000662107850756,0.0522488221001,0.000311650223146,-0.0620642083814,-0.000574611085014,-0.00886804720642,-0.00879356218978,0.0,0.0,0.0,-1.63794852438,0.00411001293447,-0.0636100851159,-0.391886687805,-31.322353815,-0.0426512179345,-18.7511654137,-0.584251497038,-0.0293135044771,0.173142984389,10.0012426312,9.99875736881
13638000000,1347,13638000000,,l_wheel_joint,r_wheel_joint,torso_lift_joint,bellows_joint,head_pan_joint,head_tilt_joint,shoulder_pan_joint,shoulder_lift_joint,upperarm_roll_joint,elbow_flex_joint,forearm_roll_joint,wrist_flex_joint,wrist_roll_joint,l_gripper_finger_joint,r_gripper_finger_joint,0.0751315425058,-0.149052729552,-9.89837793336e-07,0.00663688299233,-0.000509288478847,0.00240022880825,8.79016677136e-06,-1.21780078065,7.40528709464e-07,1.22628819874,5.94434562906e-07,1.56850006462,2.21391679034e-06,0.0499316123888,0.0499330346139,-0.000384621790763,-0.000968702574053,0.000202198565105,0.000488327064091,-0.000288454365455,-0.00694418063584,-1.55282238993e-05,0.00559466197284,0.000192994164084,0.0514621557141,-0.000192712470483,-0.0635566633257,0.000343497270172,-0.00885863811558,-0.0088029716427,0.0,0.0,0.0,-1.67155265441,0.0026140626463,-0.05117432234,-0.132418640567,-32.2681337586,-0.08121826764,-18.2242123718,-0.3746387856,0.113361505499,-0.0739144346216,10.001422225,9.99857777498
13648000000,1348,13648000000,,l_wheel_joint,r_wheel_joint,torso_lift_joint,bellows_joint,head_pan_joint,head_tilt_joint,shoulder_pan_joint,shoulder_lift_joint,upperarm_roll_joint,elbow_flex_joint,forearm_roll_joint,wrist_flex_joint,wrist_roll_joint,l_gripper_finger_joint,r_gripper_finger_joint,0.0751296803437,-0.14904794197,-1.01604538805e-07,0.0066380081806,-0.00050818784965,0.0024822385417,4.98669037174e-06,-1.21778496496,-1.19775483043e-06,1.22683422412,1.64570435235e-06,1.5678744478,-4.21909837556e-06,0.0499318203249,0.0499328266123,-0.000558846533359,-0.000425947305207,0.000128033313425,0.000226782946909,-0.000140510687871,0.00124775754874,-0.000438680655649,0.00307191461796,0.000306467788656,0.0532439785435,-0.000102276408691,-0.0627923070735,-0.000212470903113,-0.00883381738739,-0.00882779233893,0.0,0.0,0.0,-1.66518431939,0.00231377277434,-0.0782104288971,0.0514468602899,-31.2220686677,-0.0830823071295,-18.5620788405,-0.382567167114,-0.196306418179,0.0350142204892,10.0010062873,9.99899371268
13658000000,1349,13658000000,,l_wheel_joint,r_wheel_joint,torso_lift_joint,bellows_joint,head_pan_joint,head_tilt_joint,shoulder_pan_joint,shoulder_lift_joint,upperarm_roll_joint,elbow_flex_joint,forearm_roll_joint,wrist_flex_joint,wrist_roll_joint,l_gripper_finger_joint,r_gripper_finger_joint,0.0751356272039,-0.149042933924,-5.54764159902e-09,0.00663431349586,-0.000505172882557,0.00248251560669,5.12584381607e-06,-1.21774034907,3.09911382956e-06,1.22737502979,-1.45822104347e-06,1.56722359008,1.25140838492e-06,0.0499316725613,0.0499329743223,0.000140151305183,5.81912267145e-05,4.36511141738e-05,-0.000139108785727,-8.76882858816e-06,0.00224232314891,-0.0004052329204,0.00392702561798,0.00075065845927,0.0542243890009,-0.000346220799465,-0.0647889272127,0.000387058962545,-0.00884293420654,-0.0088186746918,0.0,0.0,0.0,-1.65510134778,0.0020382291874,-0.0812024376473,0.0535579899311,-31.4425338134,-0.0919584647294,-18.7016156703,-0.291564324669,0.028927679066,-0.0884037144814,10.001301761,9.99869823895
13668000000,1350,13668000000,,l_wheel_joint,r_wheel_joint,torso_lift_joint,bellows_joint,head_pan_joint,head_tilt_joint,shoulder_pan_joint,shoulder_lift_joint,upperarm_roll_joint,elbow_flex_joint,forearm_roll_joint,wrist_flex_joint,wrist_roll_joint,l_gripper_finger_joint,r_gripper_finger_joint,0.0751474623754,-0.149051859451,-4.73912121507e-06,0.00663034340945,-0.000499015707918,0.00252616573926,1.23546380362e-05,-1.21769574948,-2.54523276588e-06,1.22793595329,6.53570825015e-07,1.56654437003,3.74829330241e-07,0.049932020813,0.0499326260042,0.00168642981689,-0.000574438155563,-9.05870957868e-05,-8.56026416871e-06,0.000572715400989,0.00696055774797,0.000251681107179,0.00439644064948,0.000468482313705,0.0564684979622,-0.000232071294688,-0.0679632177577,0.00033809742303,-0.00881238084003,-0.00884922818459,0.0,0.0,0.0,-1.65796423591,0.000850632029695,-0.0966666454217,-0.101804914141,-31.571992285,-0.0950929689096,-19.2440052494,-0.302291975653,0.575590705048,-0.117673446735,10.0006051913,9.99939480875
